[{"formatted_address":"5846 S College Ave, Fort Collins, CO 80525, USA","location":{"lat":40.5047865,"lng":-105.0765196},"name":"287 Craft Spirits","site":"http://www.287craftspirits.com"},{"formatted_address":"8031 Wadsworth Blvd, Arvada, CO 80003, USA","location":{"lat":39.8440844,"lng":-105.0834483},"name":"3S Liquors","site":""},{"formatted_address":"842 Summit Blvd, Frisco, CO 80443, USA","location":{"lat":39.588497,"lng":-106.0967407},"name":"Antler's Liquor and Wine Cellar","site":"http://antlersliquor.com"},{"formatted_address":"760 E Colfax Ave, Denver, CO 80203, USA","location":{"lat":39.7396485,"lng":-104.9778773},"name":"Argonaut Wine & Liquor","site":"http://argonautliquor.com"},{"formatted_address":"25937 Conifer Rd, Conifer, CO 80433, USA","location":{"lat":39.5422914,"lng":-105.2963493},"name":"Aspen Park Wine & Spirits","site":"http://www.aspenparkwineandspirits.com/"},{"formatted_address":"2770 Arapahoe Rd, Lafayette, CO 80026, USA","location":{"lat":40.0136364,"lng":-105.1325654},"name":"Atlas Valley Purveyors","site":"http://avpurveyors.com"},{"formatted_address":"9265 S Broadway, Highlands Ranch, CO 80129, USA","location":{"lat":39.5479954,"lng":-104.9946927},"name":"Bacchus Wine & Spirits","site":"http://www.bacchuswinesandspirits.com"},{"formatted_address":"3100 S Sheridan Blvd, Denver, CO 80227, USA","location":{"lat":39.6554047,"lng":-105.0495086},"name":"Bear Valley Wine and Spirits","site":"http://bearvalleyliquor.com"},{"formatted_address":"1285 E 1st Ave #3765, Broomfield, CO 80020, USA","location":{"lat":39.9154412,"lng":-105.0550783},"name":"Beverage Werks","site":"http://beveragewerks.net/"},{"formatted_address":"Conifer Rd, Aspen Park, CO 80433, USA","location":{"lat":39.5429845,"lng":-105.2928668},"name":"Biggie Wine & Liquor","site":""},{"formatted_address":"1529 S Pearl St, Denver, CO 80210, USA","location":{"lat":39.6886757,"lng":-104.9806197},"name":"Bird American Comfort Food (Black Pearl Restaurant)","site":"http://irddenver.com"},{"formatted_address":"3911 Fox St, Denver, CO 80216, USA","location":{"lat":39.7708532,"lng":-104.9951451},"name":"Bogey's Beer and Wine","site":"http://bogeysbeer.com"},{"formatted_address":"35 Co Rd 804, Winter Park, CO 80482, USA","location":{"lat":39.9463258,"lng":-105.8101951},"name":"Bottle Pass Liquors","site":"http://bottlepassliquors.com"},{"formatted_address":"1080 S Gaylord St, Denver, CO 80209, USA","location":{"lat":39.6969094,"lng":-104.9614511},"name":"Bottle Shop 33","site":"http://www.bottleshop33.com"},{"formatted_address":"3325 28th St, Boulder, CO 80301, USA","location":{"lat":40.0353347,"lng":-105.260258},"name":"Boulder Wine and Spirits","site":"http://boulderwineandspirits.net"},{"formatted_address":"640 CO-125, Granby, CO 80446, USA","location":{"lat":40.2282249,"lng":-106.0568959},"name":"C Lazy U Ranch","site":"http://www.clazyu.com"},{"formatted_address":"3744 Tejon St, Denver, CO 80211, USA","location":{"lat":39.7688389,"lng":-105.0110203},"name":"Cask and Craft","site":"http://www.caskandcraft.com"},{"formatted_address":"15260 E Iliff Ave, Aurora, CO 80014, USA","location":{"lat":39.6734722,"lng":-104.8106032},"name":"Chambers Wine and Liquors","site":"http://www.chamberswineandliquor.com"},{"formatted_address":"19 E Kiowa St, Colorado Springs, CO 80903, USA","location":{"lat":38.8351624,"lng":-104.8242179},"name":"Chiba Bar","site":"http://chiba-bar.com"},{"formatted_address":"330 W Uintah St, Colorado Springs, CO 80905, USA","location":{"lat":38.8513648,"lng":-104.8305503},"name":"Coaltrain Fine Wine and Spirits","site":"http://coaltrainwine.com"},{"formatted_address":"15405 E Briarwood Cir, Aurora, CO 80016, USA","location":{"lat":39.5943482,"lng":-104.8092126},"name":"Cornerstar Wine & Liquor","site":"http://cornerstarwineandliquor.com"},{"formatted_address":"939 E Cedar Ave, Denver, CO 80209, USA","location":{"lat":39.71303280000001,"lng":-104.9759756},"name":"Country Club Liquors","site":""},{"formatted_address":"1455 S Pearl St, Denver, CO 80210, USA","location":{"lat":39.6902856,"lng":-104.9806654},"name":"Craft Alley","site":"http://denver.craftalley.co"},{"formatted_address":"3901 Fox St, Denver, CO 80216, USA","location":{"lat":39.7706508,"lng":-104.9951802},"name":"Crafty Fox","site":"https://craftyfox.beer/"},{"formatted_address":"620 2nd St, Crested Butte, CO 81224, USA","location":{"lat":38.8670944,"lng":-106.9872146},"name":"Crested Butte Nordic","site":""},{"formatted_address":"356 E Harmony Rd, Fort Collins, CO 80525, USA","location":{"lat":40.5239585,"lng":-105.0711764},"name":"Crystal's Liquor","site":""},{"formatted_address":"5555 Boatworks Dr, Littleton, CO 80126, USA","location":{"lat":39.565506,"lng":-104.9237689},"name":"Davidson's Liquor Colorado","site":"https://www.davidsonsliquors.com/"},{"formatted_address":"1700 E 1st Ave, Denver, CO 80218, USA","location":{"lat":39.7156582,"lng":-104.9655914},"name":"Denver Country Club","site":"http://www.denvercc.net"},{"formatted_address":"8970 E Hampden Ave, Denver, CO 80231, USA","location":{"lat":39.6529181,"lng":-104.8827629},"name":"Denver Liquor Galaxy","site":""},{"formatted_address":"3530 County Rd 83, Tabernash, CO 80478, USA","location":{"lat":39.9663313,"lng":-105.7842685},"name":"Devil's Thumb Ranch","site":"http://devilsthumbranch.com"},{"formatted_address":"4739 Yampa St, Denver, CO 80249, USA","location":{"lat":39.7817875,"lng":-104.7744671},"name":"DIA Liquor Warehouse","site":""},{"formatted_address":"103 Wahsatch Avenue, Colorado Springs, CO 80903, USA","location":{"lat":38.8319354,"lng":-104.8176776},"name":"Downtown Fine Spirits & Wines","site":"http://dtnfspiritsandwines.com"},{"formatted_address":"3755 Federal Blvd, Denver, CO 80211, USA","location":{"lat":39.768565,"lng":-105.0255795},"name":"Federal Liquors","site":""},{"formatted_address":"1920 Country Club Road, Fort Collins, CO 80524, USA","location":{"lat":40.6174557,"lng":-105.0408748},"name":"Fort Collins Country Club","site":"http://www.clubcorp.com/Clubs/Fort-Collins-Country-Club"},{"formatted_address":"4700 E Boardwalk Dr, Fort Collins, CO 80525, USA","location":{"lat":40.520954,"lng":-105.0639611},"name":"Fort Collins Warehouse Liquors","site":"http://fortcollinswarehouseliquors.com"},{"formatted_address":"110 Glenmoor Dr, Englewood, CO 80113, USA","location":{"lat":39.6250883,"lng":-104.9483004},"name":"Glenmoor Country Club","site":"http://glenmoorcc.org"},{"formatted_address":"15500 US-34, Grand Lake, CO 80447, USA","location":{"lat":40.2570039,"lng":-105.8267164},"name":"Grand Lake Lodge","site":"http://grandlakelodge.com"},{"formatted_address":"904 Grand Ave, Grand Lake, CO 80447, USA","location":{"lat":40.25172209999999,"lng":-105.8208937},"name":"Grand Lake Wine & Spirits","site":""},{"formatted_address":"2270 Kearney St, Denver, CO 80207, USA","location":{"lat":39.7504885,"lng":-104.9172701},"name":"Grape Expectations WIne & Spirits","site":"http://grapeexpectationsdenver.com"},{"formatted_address":"6140 S Gun Club Rd, Aurora, CO 80016, USA","location":{"lat":39.6038497,"lng":-104.7155695},"name":"Great Vines Liquor","site":"http://www.greatvinesliquors.net"},{"formatted_address":"1955 28th St, Boulder, CO 80301, USA","location":{"lat":40.0207251,"lng":-105.2599837},"name":"Hazel's Beverage World","site":"http://www.hazelsboulder.com"},{"formatted_address":"7475 E Arapahoe Rd, Centennial, CO 80112, USA","location":{"lat":39.596468,"lng":-104.9017506},"name":"Heritage Wine and Liquor","site":"http://www.heritagewineandliquor.com"},{"formatted_address":"4650 W 38th Ave, Denver, CO 80212, USA","location":{"lat":39.7684111,"lng":-105.0472026},"name":"Highlands Wine & Liquor","site":"http://highlandsliquor.com/"},{"formatted_address":"Timberline Rd, Highlands Ranch, CO, USA","location":{"lat":39.5456993,"lng":-104.9058793},"name":"Highlands Wineseller","site":"http://www.highlandswineseller.com"},{"formatted_address":"6390 Wadsworth Bypass, Arvada, CO 80003, USA","location":{"lat":39.812652,"lng":-105.0802117},"name":"Hill Top Liquor (Hiwat Corp)","site":""},{"formatted_address":"2016 W 32nd Ave, Denver, CO 80211, USA","location":{"lat":39.7618431,"lng":-105.0116728},"name":"HJM Wine & Spirits","site":""},{"formatted_address":"205 E 13th Ave, Denver, CO 80203, USA","location":{"lat":39.7371065,"lng":-104.9847085},"name":"Hugo's Colorado Beer & Spirits","site":"http://hugosbeer.com"},{"formatted_address":"2906 N Powers Blvd, Colorado Springs, CO 80922, USA","location":{"lat":38.87566,"lng":-104.7222662},"name":"J & K Liquor","site":"http://jkliquor.com"},{"formatted_address":"500 16th St Mall, Denver, CO 80202, USA","location":{"lat":39.7435364,"lng":-104.9913688},"name":"Jerri's Tobacco Shop & Fine Wines","site":"http://www.denvercigars.com"},{"formatted_address":"1302 E 6th Ave, Denver, CO 80218, USA","location":{"lat":39.7254105,"lng":-104.9714857},"name":"Joy Wine & Spirits","site":""},{"formatted_address":"3475 S University Blvd, Englewood, CO 80113, USA","location":{"lat":39.654445,"lng":-104.9607438},"name":"Kent Cellars","site":"https://kent-cellars.business.site/"},{"formatted_address":"2012 Larimer St, Denver, CO 80205, USA","location":{"lat":39.7528972,"lng":-104.9918937},"name":"Larimer Beer Hall","site":"http://larimerbeerhall.com"},{"formatted_address":"2390 S Downing St, Denver, CO 80210, USA","location":{"lat":39.6733968,"lng":-104.9731574},"name":"Little's Wine and Spirits","site":"http://www.littleswine.com"},{"formatted_address":"5216 Marshall St, Arvada, CO 80002, USA","location":{"lat":39.7916909,"lng":-105.0681167},"name":"Marshall Liquors","site":""},{"formatted_address":"1052 S Gaylord St, Denver, CO 80209, USA","location":{"lat":39.697411,"lng":-104.9613827},"name":"Max Gill and Grill","site":"http://www.maxgillandgrill.com"},{"formatted_address":"15400 W 64th Ave, Arvada, CO 80007, USA","location":{"lat":39.8121676,"lng":-105.1729557},"name":"Mile High Wine Cellars","site":""},{"formatted_address":"3244 Navajo St, Denver, CO 80211, USA","location":{"lat":39.762901,"lng":-105.003798},"name":"Mission Control Liquor Station","site":"https://www.missioncontroldenver.com/"},{"formatted_address":"5809 W 44th Ave, Denver, CO 80212, USA","location":{"lat":39.7789458,"lng":-105.0594859},"name":"Molly's Spirits","site":"http://www.mollysspirits.com"},{"formatted_address":"3601 W 32nd Ave, Denver, CO 80211, USA","location":{"lat":39.7622749,"lng":-105.0347475},"name":"Mondo Vino","site":"http://www.mondovinodenver.com"},{"formatted_address":"1200 E Evans Ave, Denver, CO 80210, USA","location":{"lat":39.6782851,"lng":-104.9731574},"name":"Morgans Liquors","site":"http://www.morgansliquors.com"},{"formatted_address":"2259 Oneida St, Denver, CO 80207, USA","location":{"lat":39.7509233,"lng":-104.9082788},"name":"Oneida Liquors","site":"https://oneida-liquors.business.site/"},{"formatted_address":"1472 S Pearl St, Denver, CO 80210, USA","location":{"lat":39.6897999,"lng":-104.9801633},"name":"Palizo","site":"http://palizodenver.com"},{"formatted_address":"3480 Park Ave W, Denver, CO 80216, USA","location":{"lat":39.7654855,"lng":-104.9936054},"name":"Park Avenue Wine & Spirits","site":"http://www.parkaveliquor.com"},{"formatted_address":"1886 S Pearl St, Denver, CO 80210, USA","location":{"lat":39.6823412,"lng":-104.9803255},"name":"Pearl Wine Company","site":"http://pearlwinecompany.com"},{"formatted_address":"5713 Olde Wadsworth Blvd, Arvada, CO 80002, USA","location":{"lat":39.8006942,"lng":-105.0816575},"name":"Primo Vino","site":"http://www.primovino.net"},{"formatted_address":"2100 W Drake Rd, Fort Collins, CO 80526, USA","location":{"lat":40.5531465,"lng":-105.1159826},"name":"Pringle's Fine Wine and Spirits","site":""},{"formatted_address":"3360 Larimer St, Denver, CO 80205, USA","location":{"lat":39.7657432,"lng":-104.9756448},"name":"Proof Wine & Spirits (Noble Swine, LLC)","site":"http://www.proofwineandspirits.com"},{"formatted_address":"88 E Agate Ave, Granby, CO 80446, USA","location":{"lat":40.0853754,"lng":-105.9410029},"name":"R and J Liquors","site":""},{"formatted_address":"3083 Brighton Blvd, Denver, CO 80216, USA","location":{"lat":39.7665965,"lng":-104.9845678},"name":"RiNo Liqour","site":"http://rinoartdistrict.org"},{"formatted_address":"76827 US-40, Winter Park, CO 80482, USA","location":{"lat":39.9413845,"lng":-105.8052949},"name":"Rocky Mountain Moonshine Liquors","site":""},{"formatted_address":"7735 Wadsworth Blvd b, Arvada, CO 80003, USA","location":{"lat":39.8370986,"lng":-105.083896},"name":"Royal Liquor","site":""},{"formatted_address":"5660 Olde Wadsworth Blvd, Arvada, CO 80002, USA","location":{"lat":39.7999953,"lng":-105.0812921},"name":"School House Kitchen & Libations","site":"http://schoolhousearvada.com"},{"formatted_address":"E Smoky Hill Rd, Colorado, USA","location":{"lat":39.60918360000001,"lng":-104.7488575},"name":"Serenity Ridge Liquors","site":""},{"formatted_address":"2035 S Broadway, Denver, CO 80210, USA","location":{"lat":39.6796281,"lng":-104.9878777},"name":"Sobo Liquors","site":""},{"formatted_address":"1434 Blake St, Denver, CO 80202, USA","location":{"lat":39.748979,"lng":-105.000686},"name":"Society Sports & Spirits","site":"http://societydenver.com"},{"formatted_address":"7403 W Chatfield Ave, Littleton, CO 80128, USA","location":{"lat":39.5673171,"lng":-105.0805386},"name":"Southside Pizzeria","site":"http://www.eatsouthside.com"},{"formatted_address":"123 E Pikes Peak Ave, Colorado Springs, CO 80947, USA","location":{"lat":38.8336622,"lng":-104.8223881},"name":"Springs Orleans","site":"http://www.springsorleans.com"},{"formatted_address":"2939 S Parker Rd, Parker, CO 80134, USA","location":{"lat":39.4351887,"lng":-104.7603314},"name":"Stroh Ranch Liquors","site":"http://strohranchliquor.com"},{"formatted_address":"1300 E Mulberry St, Fort Collins, CO 80524, USA","location":{"lat":40.5820904,"lng":-105.0534583},"name":"Supermarket Liquors","site":""},{"formatted_address":"7415 Grandview Ave, Arvada, CO 80002, USA","location":{"lat":39.799501,"lng":-105.0795999},"name":"The Bluegrass Coffee & Bourbon Lounge","site":"https://www.thebluegrasslounge.com/"},{"formatted_address":"415 S Cherokee St, Denver, CO 80223, USA","location":{"lat":39.709233,"lng":-104.992647},"name":"The White Whale Room","site":"https://www.chasethewhitewhale.com/"},{"formatted_address":"1401 Miner St, Idaho Springs, CO 80452, USA","location":{"lat":39.7416267,"lng":-105.5177181},"name":"Tommyknocker Brewery","site":"http://tommyknocker.com"},{"formatted_address":"900 E 104th Ave, Denver, CO 80233, USA","location":{"lat":39.8836637,"lng":-104.9741258},"name":"Total Beverage- Thorton","site":""},{"formatted_address":"Janitell Rd, Southeast Colorado Springs, CO 80906, USA","location":{"lat":38.7944135,"lng":-104.7898732},"name":"Total Wine & Liquor","site":"http://totalwineandliquor.com"},{"formatted_address":"3630 Austin Bluffs Pkwy, Colorado Springs, CO 80918, USA","location":{"lat":38.8932403,"lng":-104.7595686},"name":"Veterans Wine & Liquor","site":""},{"formatted_address":"8770 Wadsworth Blvd, Arvada, CO 80003, USA","location":{"lat":39.8552997,"lng":-105.0803102},"name":"Vineland Liquors","site":""},{"formatted_address":"1455 S Holly St, Denver, CO 80222, USA","location":{"lat":39.6903156,"lng":-104.9232698},"name":"Virginia Village Liquor","site":""},{"formatted_address":"2201 S College Ave, Fort Collins, CO 80525, USA","location":{"lat":40.5590315,"lng":-105.0786998},"name":"Wilbur's Total Beverage","site":"http://www.wilburstotalbeverage.com"},{"formatted_address":"8200 S Quebec St, Centennial, CO 80112, USA","location":{"lat":39.5673818,"lng":-104.9025678},"name":"Willow Creek Wine & Spirits (Mojo Beau Co)","site":""},{"formatted_address":"78911 US-40, Winter Park, CO 80482, USA","location":{"lat":39.9182309,"lng":-105.784131},"name":"Winter Park Wine and Spirits","site":""},{"formatted_address":"8310 E Belleview Ave, Greenwood Village, CO 80111, USA","location":{"lat":39.623743,"lng":-104.890957},"name":"Ya Ya's Euro Bistro (PB&J Restaurants, Inc.)","site":"http://www.yayasdenver.com"}]