[
  {
    "name": "Liquor Depot - Winter Park",
    "web-address": {
      "id": "266304635",
      "location": "Work",
      "url": "https://www.liquordepotwp.com/"
    },
    "address": {
      "city": "Winter Park",
      "country": "",
      "id": "160118633",
      "location": "Work",
      "state": "CO",
      "street": "78331 US-40 Suite 3",
      "zip": "80482"
    }
  },
  {},
  {},
  {},
  {},
  {},
  {
    "name": "Interquest Liquor",
    "address": {
      "city": "Colorado Springs",
      "country": "United States",
      "id": "156551860",
      "location": "Work",
      "state": "CO",
      "street": "345 Interquest Pkwy",
      "zip": "80920"
    }
  },
  {},
  {
    "name": "Cork on the Water",
    "address": {
      "city": "Grand Lake",
      "country": "",
      "id": "160122420",
      "location": "Work",
      "state": "CO",
      "street": "1007 Lake Ave.",
      "zip": "80447"
    }
  },
  {
    "name": "Squeaky B's",
    "web-address": {
      "id": "266322163",
      "location": "Work",
      "url": "https://squeakybs.com"
    },
    "address": {
      "city": "Grand Lake",
      "country": "",
      "id": "160122404",
      "location": "Work",
      "state": "CO",
      "street": "1000 Grand Ave.",
      "zip": "80447"
    }
  },
  {
    "name": "The Broadmoor",
    "address": {
      "city": "Colorado Springs",
      "country": "",
      "id": "155839288",
      "location": "Work",
      "state": "CO",
      "street": "1 Lake Ave.",
      "zip": "80906"
    }
  },
  {
    "name": "Avon Liqour",
    "web-address": {
      "id": "265207962",
      "location": "Work",
      "url": "http://www.avon-liquor.com"
    },
    "address": {
      "city": "Avon",
      "country": "United States",
      "id": "159678028",
      "location": "Work",
      "state": "CO",
      "street": "100 West Beaver Creek Blvd",
      "zip": "81620"
    }
  },
  {},
  {},
  {
    "name": "West vail liquor mart",
    "web-address": {
      "id": "260270695",
      "location": "Work",
      "url": "https://www.westvail.com/"
    },
    "address": {
      "city": "Vail",
      "country": "United States",
      "id": "157623745",
      "location": "Work",
      "state": "CO",
      "street": "3936, 2151 N Frontage Rd W",
      "zip": "81657"
    }
  },
  {
    "name": "Williams & Graham",
    "address": {
      "city": "Denver",
      "country": "",
      "id": "160124116",
      "location": "Work",
      "state": "CO",
      "street": "3160 Tejon St.",
      "zip": "80211"
    }
  },
  {},
  {},
  {},
  {},
  {},
  {
    "name": "Catherine Store",
    "web-address": {
      "id": "258030411",
      "location": "Work",
      "url": "http://catherines.com"
    },
    "address": {
      "city": "Carbondale",
      "country": "",
      "id": "156447512",
      "location": "Work",
      "state": "CO",
      "street": "15783 CO-82",
      "zip": "81623"
    }
  },
  {},
  {
    "name": "Main Street Spirits",
    "address": {
      "city": "Carbondale",
      "country": "",
      "id": "156445649",
      "location": "Work",
      "state": "CO",
      "street": "389 Main St.",
      "zip": "81623"
    }
  },
  {
    "name": "River walk wine and spirits",
    "web-address": {
      "id": "265201211",
      "location": "Work",
      "url": "http://riverwalkwineandspirits.com"
    },
    "address": {
      "city": "Edwards",
      "country": "US",
      "id": "159674360",
      "location": "Work",
      "state": "CO",
      "street": "34295",
      "zip": "81632"
    }
  },
  {
    "name": "Craftsman",
    "web-address": {
      "id": "265202059",
      "location": "Work",
      "url": "http://craftsmanvail.com"
    },
    "address": {
      "city": "Edwards",
      "country": "US",
      "id": "159674904",
      "location": "Work",
      "state": "CO",
      "street": "56 Edwards Village Blvd Unit 112",
      "zip": "81632"
    }
  },
  {},
  {
    "name": "Locals Liquors- Silverthorne",
    "web-address": {
      "id": "265390365",
      "location": "Work",
      "url": "http://localsliquors.com/"
    },
    "address": {
      "city": "Silverthorne",
      "country": "United States",
      "id": "159746540",
      "location": "Work",
      "state": "CO",
      "street": "354 Blue River Pkwy",
      "zip": "80498"
    }
  },
  {}
]