[{"formatted_address":"6140 S Gun Club Rd, Aurora, CO 80016, USA","location":{"lat":39.603782,"lng":-104.7149528},"name":"Great Vines Liquor","site":"http://www.greatvinesliquors.net"},{"formatted_address":"15260 E Iliff Ave, Aurora, CO 80014, USA","location":{"lat":39.6734722,"lng":-104.8106032},"name":"Chambers Wine and Liquors","site":"http://www.chamberswineandliquor.com"},{"formatted_address":"15405 East Briarwood Circle C, Aurora, CO 80016, United States","location":{"lat":39.593593,"lng":-104.809312},"name":"Cornerstar Wine & Liquor","site":"http://cornerstarwineandliquor.com"},{"formatted_address":"E Smoky Hill Rd, Colorado, USA","location":{"lat":39.60918360000001,"lng":-104.7488575},"name":"Serenity Ridge Liquors","site":""},{"formatted_address":"3325 28th St, Boulder, CO 80301, USA","location":{"lat":40.0353347,"lng":-105.260258},"name":"Boulder Wine and Spirits","site":"http://boulderwineandspirits.net"},{"formatted_address":"1955 28th St, Boulder, CO 80301, USA","location":{"lat":40.0207251,"lng":-105.2599837},"name":"Hazel's Beverage World","site":"http://www.hazelsboulder.com"},{"formatted_address":"7475 E Arapahoe Rd, Centennial, CO 80112, USA","location":{"lat":39.596464,"lng":-104.901684},"name":"Heritage Wine and Liquor","site":"http://www.heritagewineandliquor.com"},{"formatted_address":"8200 S Quebec St a2, Centennial, CO 80112, USA","location":{"lat":39.5673818,"lng":-104.9025678},"name":"Willow Creek Wine & Spirits","site":""},{"formatted_address":"Conifer Rd, Aspen Park, CO 80433, USA","location":{"lat":39.5429845,"lng":-105.2928668},"name":"Biggie Wine & Liquor","site":""},{"formatted_address":"3100 S Sheridan Blvd, Denver, CO 80227, USA","location":{"lat":39.6554047,"lng":-105.0495086},"name":"Bear Valley Wine and Spirits","site":"http://bearvalleyliquor.com"},{"formatted_address":"3911 Fox St, Denver, CO 80216, USA","location":{"lat":39.7708532,"lng":-104.9951451},"name":"Bogey's Beer and Wine","site":"http://bogeysbeer.com"},{"formatted_address":"1080 S Gaylord St, Denver, CO 80209, USA","location":{"lat":39.6969094,"lng":-104.9614511},"name":"Bottle Shop 33","site":"http://www.bottleshop33.com"},{"formatted_address":"3744 Tejon St, Denver, CO 80211, USA","location":{"lat":39.7688389,"lng":-105.0110203},"name":"Cask and Craft","site":"http://www.caskandcraft.com"},{"formatted_address":"939 E Cedar Ave, Denver, CO 80209, USA","location":{"lat":39.71303280000001,"lng":-104.9759756},"name":"Country Club Liquors","site":""},{"formatted_address":"2270 Kearney St, Denver, CO 80207, USA","location":{"lat":39.7504885,"lng":-104.9172701},"name":"Grape Expectations WIne & Spirits","site":"http://grapeexpectationsdenver.com"},{"formatted_address":"205 E 13th Ave, Denver, CO 80203, USA","location":{"lat":39.7371065,"lng":-104.9847085},"name":"Hugo's Colorado Beer & Spirits","site":"http://hugosbeer.com"},{"name":"Jerri's Tobacco Shop & FIne Wines","site":"http://www.denvercigars.com"},{"formatted_address":"2390 S Downing St, Denver, CO 80210, USA","location":{"lat":39.6733968,"lng":-104.9731574},"name":"Little's Wine and Spirits","site":"http://www.littleswine.com"},{"formatted_address":"5809 W 44th Ave, Denver, CO 80212, USA","location":{"lat":39.7789458,"lng":-105.0594859},"name":"Molly's Spirits","site":"http://www.mollysspirits.com"},{"formatted_address":"3601 W 32nd Ave, Denver, CO 80211, USA","location":{"lat":39.7622749,"lng":-105.0347475},"name":"Mondo Vino","site":"http://www.mondovinodenver.com"},{"formatted_address":"1200 E Evans Ave, Denver, CO 80210, USA","location":{"lat":39.6782851,"lng":-104.9731574},"name":"Morgans Liquors","site":"http://www.morgansliquors.com"},{"formatted_address":"3480 Park Ave W, Denver, CO 80216, USA","location":{"lat":39.7654855,"lng":-104.9936054},"name":"Park Avenue Wine & Spirits","site":"http://www.parkaveliquor.com"},{"formatted_address":"3360 Larimer St, Denver, CO 80205, USA","location":{"lat":39.7657432,"lng":-104.9756448},"name":"Proof Wine & Spirits","site":"http://www.proofwineandspirits.com"},{"formatted_address":"3083 Brighton Blvd Suite B, Denver, CO 80216, USA","location":{"lat":39.7665965,"lng":-104.9845678},"name":"RiNo Liqour","site":"http://rinoartdistrict.org"},{"formatted_address":"2035 S Broadway, Denver, CO 80210, USA","location":{"lat":39.6796281,"lng":-104.9878777},"name":"Sobo Liquors","site":""},{"formatted_address":"2201 S College Ave, Fort Collins, CO 80525, USA","location":{"lat":40.5590315,"lng":-105.0786998},"name":"Wilbur's Total Beverage","site":"http://www.wilburstotalbeverage.com"},{"formatted_address":"904 Grand Ave, Grand Lake, CO 80447, USA","location":{"lat":40.25172209999999,"lng":-105.8208937},"name":"Grand Lake Wine & Spirits","site":""},{"formatted_address":"2939 South Parker Road, Parker, CO 80134, USA","location":{"lat":39.4351887,"lng":-104.7603314},"name":"Stroh Ranch Liquors","site":"http://strohranchliquor.com"},{"formatted_address":"371 W Hampden Ave, Englewood, CO 80110, USA","location":{"lat":39.6533054,"lng":-104.9926536},"name":"Warehouse Liquor Mart","site":"http://warehouseliquormart.com"},{"formatted_address":"356 E Harmony Rd, Fort Collins, CO 80525, USA","location":{"lat":40.5239585,"lng":-105.0711764},"name":"Crystal's Liquor","site":""},{"formatted_address":"4700 E Boardwalk Dr, Fort Collins, CO 80525, USA","location":{"lat":40.520954,"lng":-105.0639611},"name":"Fort Collins Warehouse Liquors","site":""},{"formatted_address":"2100 W Drake Rd, Fort Collins, CO 80526, USA","location":{"lat":40.5531465,"lng":-105.1159826},"name":"Pringle's Fine Wine and Spirits","site":""},{"formatted_address":"1300 E Mulberry St, Fort Collins, CO 80524, USA","location":{"lat":40.5820904,"lng":-105.0534583},"name":"Supermarket Liquors","site":""},{"formatted_address":"5216 Marshall St, Arvada, CO 80002, USA","location":{"lat":39.7916909,"lng":-105.0681167},"name":"Marshall Liquors","site":""},{"formatted_address":"5713 Olde Wadsworth Blvd, Arvada, CO 80002, USA","location":{"lat":39.8006942,"lng":-105.0816575},"name":"Primo Vino","site":"http://www.primovino.net"},{"name":"Mile High Wine Cellars","site":""},{"formatted_address":"3901 Fox St, Denver, CO 80216, USA","location":{"lat":39.7706508,"lng":-104.9951802},"name":"Crafty Fox","site":""},{"formatted_address":"1700 E 1st Ave, Denver, CO 80218, USA","location":{"lat":39.7156582,"lng":-104.9655914},"name":"Denver Country Club","site":"http://www.denvercc.net"},{"formatted_address":"1052 S Gaylord St, Denver, CO 80209, USA","location":{"lat":39.697411,"lng":-104.9613827},"name":"Max Gill and Grill","site":"http://www.maxgillandgrill.com"},{"formatted_address":"310 E Belleview Ave, Littleton, CO 80121, USA","location":{"lat":39.623856,"lng":-104.9841786},"name":"Ya Ya's Euro Bistro","site":"http://www.yayasdenver.com"},{"formatted_address":"640 CO-125, Granby, CO 80446, USA","location":{"lat":40.2282249,"lng":-106.0568959},"name":"C Lazy U Ranch","site":"http://www.clazyu.com"},{"formatted_address":"15500 US-34, Grand Lake, CO 80447, USA","location":{"lat":40.2570039,"lng":-105.8267164},"name":"Grand Lake Lodge","site":"http://grandlakelodge.com"},{"formatted_address":"7403 W Chatfield Ave, Littleton, CO 80128, USA","location":{"lat":39.5673171,"lng":-105.0805386},"name":"Southside Pizzeria","site":"http://www.eatsouthside.com"},{"formatted_address":"620 2nd St, Crested Butte, CO 81224, USA","location":{"lat":38.8670944,"lng":-106.9872146},"name":"Crestted Butte Nordic","site":""},{"formatted_address":"3600 Mitchell Dr #90, Fort Collins, CO 80525, USA","location":{"lat":40.5377674,"lng":-105.0751496},"name":"The Cellar Gourmet Wine & Spirits","site":"http://www.thecellarfc.com/"},{"formatted_address":"2012 Larimer St, Denver, CO 80205, USA","location":{"lat":39.7528972,"lng":-104.9918937},"name":"Larimer Beer Hall","site":""},{"formatted_address":"4650 W 38th Ave, Denver, CO 80212, USA","location":{"lat":39.7684111,"lng":-105.0472026},"name":"Highlands Wine & Liquor","site":""}]