[{
    "list": [{
        "formatted_address": "5846 S College Ave, Fort Collins, CO 80525, USA",
        "location": {
            "lat": 40.5047865,
            "lng": -105.0765196
        },
        "city": "Fort Collins",
        "place_id": "ChIJVVY-rPVMaYcR2X72djgTKZA",
        "name": "287 Craft Spirits",
        "site": "http://www.287craftspirits.com"
    }, {
        "formatted_address": "356 E Harmony Rd, Fort Collins, CO 80525, USA",
        "location": {
            "lat": 40.5239585,
            "lng": -105.0711764
        },
        "city": "Fort Collins",
        "place_id": "ChIJy4M3kINMaYcR5tHfAREsWGU",
        "name": "Crystal's Liquor",
        "site": ""
    }, {
        "formatted_address": "1920 Country Club Road, Fort Collins, CO 80524, USA",
        "location": {
            "lat": 40.6174557,
            "lng": -105.0408748
        },
        "city": "Fort Collins",
        "place_id": "ChIJZa7tJVE1aYcRs14iTXol7Qg",
        "name": "Fort Collins Country Club",
        "site": "http://www.clubcorp.com/Clubs/Fort-Collins-Country-Club"
    }, {
        "formatted_address": "4700 E Boardwalk Dr, Fort Collins, CO 80525, USA",
        "location": {
            "lat": 40.520954,
            "lng": -105.0639611
        },
        "city": "Fort Collins",
        "place_id": "ChIJOzcdW5pMaYcRUyewWk0JD4g",
        "name": "Fort Collins Warehouse Liquors",
        "site": "http://fortcollinswarehouseliquors.com"
    }, {
        "formatted_address": "2100 W Drake Rd, Fort Collins, CO 80526, USA",
        "location": {
            "lat": 40.5531465,
            "lng": -105.1159826
        },
        "city": "Fort Collins",
        "place_id": "ChIJ6_TKa9BLaYcRzPF5T4L9L1k",
        "name": "Pringle's Fine Wine and Spirits",
        "site": ""
    }, {
        "formatted_address": "1300 E Mulberry St, Fort Collins, CO 80524, USA",
        "location": {
            "lat": 40.5820904,
            "lng": -105.0534583
        },
        "city": "Fort Collins",
        "place_id": "ChIJc71X5cJKaYcRvoIVpkKpGnk",
        "name": "Supermarket Liquors",
        "site": ""
    }, {
        "formatted_address": "2201 S College Ave, Fort Collins, CO 80525, USA",
        "location": {
            "lat": 40.5590315,
            "lng": -105.0786998
        },
        "city": "Fort Collins",
        "place_id": "ChIJH3bKogdLaYcRJEUCsStZDAM",
        "name": "Wilbur's Total Beverage",
        "site": "http://www.wilburstotalbeverage.com"
    }],
    "total": 7,
    "formatted_address": "Fort Collins, CO, USA",
    "location": {
        "lat": 40.5852602,
        "lng": -105.084423
    },
    "city": "fort collins"
}, {
    "list": [{
        "formatted_address": "8031 Wadsworth Blvd, Arvada, CO 80003, USA",
        "location": {
            "lat": 39.8440844,
            "lng": -105.0834483
        },
        "city": "Arvada",
        "place_id": "ChIJf-_p8v6Ia4cRsthiy8jFn5o",
        "name": "3S Liquors",
        "site": ""
    }, {
        "formatted_address": "6390 Wadsworth Bypass, Arvada, CO 80003, USA",
        "location": {
            "lat": 39.812652,
            "lng": -105.0802117
        },
        "city": "Arvada",
        "place_id": "Eiw2MzkwIFdhZHN3b3J0aCBCeXBhc3MsIEFydmFkYSwgQ08gODAwMDMsIFVTQSIbEhkKFAoSCSHyLmqHiGuHETMaE0gM42nIEPYx",
        "name": "Hill Top Liquor (Hiwat Corp)",
        "site": ""
    }, {
        "formatted_address": "5216 Marshall St, Arvada, CO 80002, USA",
        "location": {
            "lat": 39.7916909,
            "lng": -105.0681167
        },
        "city": "Arvada",
        "place_id": "ChIJCeINmMiHa4cRdxbZ-GNuT4U",
        "name": "Marshall Liquors",
        "site": ""
    }, {
        "formatted_address": "15400 W 64th Ave, Arvada, CO 80007, USA",
        "location": {
            "lat": 39.8121676,
            "lng": -105.1729557
        },
        "city": "Arvada",
        "place_id": "ChIJMVuJ1p-Pa4cRK9-zT1DiZrM",
        "name": "Mile High Wine Cellars",
        "site": ""
    }, {
        "formatted_address": "5713 Olde Wadsworth Blvd, Arvada, CO 80002, USA",
        "location": {
            "lat": 39.8006942,
            "lng": -105.0816575
        },
        "city": "Arvada",
        "place_id": "ChIJp5gDhiyGa4cRpKEPmt548Xk",
        "name": "Primo Vino",
        "site": "http://www.primovino.net"
    }, {
        "formatted_address": "7735 Wadsworth Blvd b, Arvada, CO 80003, USA",
        "location": {
            "lat": 39.8370986,
            "lng": -105.083896
        },
        "city": "Arvada",
        "place_id": "ChIJOwxJNfiIa4cRVZ-BnPa_xXU",
        "name": "Royal Liquor",
        "site": ""
    }, {
        "formatted_address": "5660 Olde Wadsworth Blvd, Arvada, CO 80002, USA",
        "location": {
            "lat": 39.7999953,
            "lng": -105.0812921
        },
        "city": "Arvada",
        "place_id": "ChIJu4D_6CyGa4cRzco29j6ioj8",
        "name": "School House Kitchen & Libations",
        "site": "http://schoolhousearvada.com"
    }, {
        "formatted_address": "7415 Grandview Ave, Arvada, CO 80002, USA",
        "location": {
            "lat": 39.799501,
            "lng": -105.0795999
        },
        "city": "Arvada",
        "place_id": "ChIJE9eg0SyGa4cRkH1h4KY-Ci0",
        "name": "The Bluegrass Coffee & Bourbon Lounge",
        "site": "https://www.thebluegrasslounge.com/"
    }, {
        "formatted_address": "8770 Wadsworth Blvd, Arvada, CO 80003, USA",
        "location": {
            "lat": 39.8552997,
            "lng": -105.0803102
        },
        "city": "Arvada",
        "place_id": "ChIJueMokweJa4cRFZk4D79RcZQ",
        "name": "Vineland Liquors",
        "site": ""
    }],
    "total": 9,
    "formatted_address": "Arvada, CO, USA",
    "location": {
        "lat": 39.8027644,
        "lng": -105.0874842
    },
    "city": "arvada"
}, {
    "list": [{
        "formatted_address": "842 Summit Blvd, Frisco, CO 80443, USA",
        "location": {
            "lat": 39.588497,
            "lng": -106.0967407
        },
        "city": "Frisco",
        "place_id": "ChIJdyqSHidcaocRGvWOZ2dYiSg",
        "name": "Antler's Liquor and Wine Cellar",
        "site": "http://antlersliquor.com"
    }],
    "total": 1,
    "formatted_address": "Frisco, CO, USA",
    "location": {
        "lat": 39.5744309,
        "lng": -106.0975203
    },
    "city": "frisco"
}, {
    "list": [{
        "formatted_address": "760 E Colfax Ave, Denver, CO 80203, USA",
        "location": {
            "lat": 39.7396485,
            "lng": -104.9778773
        },
        "city": "Denver",
        "place_id": "ChIJvekJzCx5bIcR0lSTsFJbWhs",
        "name": "Argonaut Wine & Liquor",
        "site": "http://argonautliquor.com"
    }, {
        "formatted_address": "3100 S Sheridan Blvd, Denver, CO 80227, USA",
        "location": {
            "lat": 39.6554047,
            "lng": -105.0495086
        },
        "city": "Denver",
        "place_id": "ChIJ09sxSBmAa4cRZ5ExEtq8rKg",
        "name": "Bear Valley Wine and Spirits",
        "site": "http://bearvalleyliquor.com"
    }, {
        "formatted_address": "1529 S Pearl St, Denver, CO 80210, USA",
        "location": {
            "lat": 39.6886757,
            "lng": -104.9806197
        },
        "city": "Denver",
        "place_id": "ChIJGWRHCFJ-bIcR9edrJezeciw",
        "name": "Bird American Comfort Food (Black Pearl Restaurant)",
        "site": "http://irddenver.com"
    }, {
        "formatted_address": "3911 Fox St, Denver, CO 80216, USA",
        "location": {
            "lat": 39.7708532,
            "lng": -104.9951451
        },
        "city": "Denver",
        "place_id": "ChIJTyQxSPp4bIcRj94q860uQJ0",
        "name": "Bogey's Beer and Wine",
        "site": "http://bogeysbeer.com"
    }, {
        "formatted_address": "1080 S Gaylord St, Denver, CO 80209, USA",
        "location": {
            "lat": 39.6969094,
            "lng": -104.9614511
        },
        "city": "Denver",
        "place_id": "ChIJLXTqumB-bIcRbcL8hF7BZgI",
        "name": "Bottle Shop 33",
        "site": "http://www.bottleshop33.com"
    }, {
        "formatted_address": "3744 Tejon St, Denver, CO 80211, USA",
        "location": {
            "lat": 39.7688389,
            "lng": -105.0110203
        },
        "city": "Denver",
        "place_id": "ChIJ9Yy07Yx4bIcRjI8EYjjhnzk",
        "name": "Cask and Craft",
        "site": "http://www.caskandcraft.com"
    }, {
        "formatted_address": "939 E Cedar Ave, Denver, CO 80209, USA",
        "location": {
            "lat": 39.71303280000001,
            "lng": -104.9759756
        },
        "city": "Denver",
        "place_id": "ChIJFfGqueV-bIcR2B88UNVQjVc",
        "name": "Country Club Liquors",
        "site": ""
    }, {
        "formatted_address": "1455 S Pearl St, Denver, CO 80210, USA",
        "location": {
            "lat": 39.6902856,
            "lng": -104.9806654
        },
        "city": "Denver",
        "place_id": "ChIJx5oJO1J-bIcRB-xPrquX9hE",
        "name": "Craft Alley",
        "site": "http://denver.craftalley.co"
    }, {
        "formatted_address": "3901 Fox St, Denver, CO 80216, USA",
        "location": {
            "lat": 39.7706508,
            "lng": -104.9951802
        },
        "city": "Denver",
        "place_id": "ChIJu6F3Rfp4bIcRmhgqMRqeiV0",
        "name": "Crafty Fox",
        "site": "https://craftyfox.beer/"
    }, {
        "formatted_address": "1700 E 1st Ave, Denver, CO 80218, USA",
        "location": {
            "lat": 39.7156582,
            "lng": -104.9655914
        },
        "city": "Denver",
        "place_id": "ChIJO3LHzOt-bIcRBbawKITpnZs",
        "name": "Denver Country Club",
        "site": "http://www.denvercc.net"
    }, {
        "formatted_address": "8970 E Hampden Ave, Denver, CO 80231, USA",
        "location": {
            "lat": 39.6529181,
            "lng": -104.8827629
        },
        "city": "Denver",
        "place_id": "ChIJ02gTUJiHbIcRgPUg7xGWQe8",
        "name": "Denver Liquor Galaxy",
        "site": ""
    }, {
        "formatted_address": "4739 Yampa St, Denver, CO 80249, USA",
        "location": {
            "lat": 39.7817875,
            "lng": -104.7744671
        },
        "city": "Denver",
        "place_id": "EiQ0NzM5IFlhbXBhIFN0LCBEZW52ZXIsIENPIDgwMjQ5LCBVU0EiGxIZChQKEgmXC--kFGRshxEwipDKBekKTBCDJQ",
        "name": "DIA Liquor Warehouse",
        "site": ""
    }, {
        "formatted_address": "3755 Federal Blvd, Denver, CO 80211, USA",
        "location": {
            "lat": 39.768565,
            "lng": -105.0255795
        },
        "city": "Denver",
        "place_id": "ChIJBwH6poZ4bIcR5w53KPSiD1U",
        "name": "Federal Liquors",
        "site": ""
    }, {
        "formatted_address": "2270 Kearney St, Denver, CO 80207, USA",
        "location": {
            "lat": 39.7504885,
            "lng": -104.9172701
        },
        "city": "Denver",
        "place_id": "ChIJt0H15fR7bIcRESasGd1sF8s",
        "name": "Grape Expectations WIne & Spirits",
        "site": "http://grapeexpectationsdenver.com"
    }, {
        "formatted_address": "4650 W 38th Ave, Denver, CO 80212, USA",
        "location": {
            "lat": 39.7684111,
            "lng": -105.0472026
        },
        "city": "Denver",
        "place_id": "ChIJK8GCU3aHa4cReGldAJY0sYI",
        "name": "Highlands Wine & Liquor",
        "site": "http://highlandsliquor.com/"
    }, {
        "formatted_address": "2016 W 32nd Ave, Denver, CO 80211, USA",
        "location": {
            "lat": 39.7618431,
            "lng": -105.0116728
        },
        "city": "Denver",
        "place_id": "ChIJGXsQCZN4bIcREbO7ounfhBg",
        "name": "HJM Wine & Spirits",
        "site": ""
    }, {
        "formatted_address": "205 E 13th Ave, Denver, CO 80203, USA",
        "location": {
            "lat": 39.7371065,
            "lng": -104.9847085
        },
        "city": "Denver",
        "place_id": "EiUyMDUgRSAxM3RoIEF2ZSwgRGVudmVyLCBDTyA4MDIwMywgVVNBIhsSGQoUChIJlz5FbNV-bIcRSG97rD1a6xYQzQE",
        "name": "Hugo's Colorado Beer & Spirits",
        "site": "http://hugosbeer.com"
    }, {
        "formatted_address": "500 16th St Mall, Denver, CO 80202, USA",
        "location": {
            "lat": 39.7435364,
            "lng": -104.9913688
        },
        "city": "Denver",
        "place_id": "ChIJvwtUsNZ4bIcRjJBHu3XH3aE",
        "name": "Jerri's Tobacco Shop & Fine Wines",
        "site": "http://www.denvercigars.com"
    }, {
        "formatted_address": "1302 E 6th Ave, Denver, CO 80218, USA",
        "location": {
            "lat": 39.7254105,
            "lng": -104.9714857
        },
        "city": "Denver",
        "place_id": "ChIJCV_Eg8R-bIcRY-oSTy7bei0",
        "name": "Joy Wine & Spirits",
        "site": ""
    }, {
        "formatted_address": "2012 Larimer St, Denver, CO 80205, USA",
        "location": {
            "lat": 39.7528972,
            "lng": -104.9918937
        },
        "city": "Denver",
        "place_id": "ChIJoZHUBdx4bIcREhgtom65heM",
        "name": "Larimer Beer Hall",
        "site": "http://larimerbeerhall.com"
    }, {
        "formatted_address": "2390 S Downing St, Denver, CO 80210, USA",
        "location": {
            "lat": 39.6733968,
            "lng": -104.9731574
        },
        "city": "Denver",
        "place_id": "ChIJX5cKEjp-bIcRQ9GIvlo5_00",
        "name": "Little's Wine and Spirits",
        "site": "http://www.littleswine.com"
    }, {
        "formatted_address": "1052 S Gaylord St, Denver, CO 80209, USA",
        "location": {
            "lat": 39.697411,
            "lng": -104.9613827
        },
        "city": "Denver",
        "place_id": "ChIJA9N3vWB-bIcRRRjfO2WAH4I",
        "name": "Max Gill and Grill",
        "site": "http://www.maxgillandgrill.com"
    }, {
        "formatted_address": "3244 Navajo St, Denver, CO 80211, USA",
        "location": {
            "lat": 39.762901,
            "lng": -105.003798
        },
        "city": "Denver",
        "place_id": "ChIJYS7cJOx4bIcRoyMlLLuCjeE",
        "name": "Mission Control Liquor Station",
        "site": "https://www.missioncontroldenver.com/"
    }, {
        "formatted_address": "5809 W 44th Ave, Denver, CO 80212, USA",
        "location": {
            "lat": 39.7789458,
            "lng": -105.0594859
        },
        "city": "Denver",
        "place_id": "ChIJfcMuzbyHa4cRJTZd-MyUfaI",
        "name": "Molly's Spirits",
        "site": "http://www.mollysspirits.com"
    }, {
        "formatted_address": "3601 W 32nd Ave, Denver, CO 80211, USA",
        "location": {
            "lat": 39.7622749,
            "lng": -105.0347475
        },
        "city": "Denver",
        "place_id": "ChIJS-91LH2Ha4cRcBPWmrj9sac",
        "name": "Mondo Vino",
        "site": "http://www.mondovinodenver.com"
    }, {
        "formatted_address": "1200 E Evans Ave, Denver, CO 80210, USA",
        "location": {
            "lat": 39.6782851,
            "lng": -104.9731574
        },
        "city": "Denver",
        "place_id": "ChIJgy7iFzh-bIcRpZ1Ttkw6vhA",
        "name": "Morgans Liquors",
        "site": "http://www.morgansliquors.com"
    }, {
        "formatted_address": "2259 Oneida St, Denver, CO 80207, USA",
        "location": {
            "lat": 39.7509233,
            "lng": -104.9082788
        },
        "city": "Denver",
        "place_id": "ChIJg22bn4l7bIcRGBff2bK0IcY",
        "name": "Oneida Liquors",
        "site": "https://oneida-liquors.business.site/"
    }, {
        "formatted_address": "1472 S Pearl St, Denver, CO 80210, USA",
        "location": {
            "lat": 39.6897999,
            "lng": -104.9801633
        },
        "city": "Denver",
        "place_id": "ChIJC93WGFJ-bIcRqtS7uvVuRmg",
        "name": "Palizo",
        "site": "http://palizodenver.com"
    }, {
        "formatted_address": "3480 Park Ave W, Denver, CO 80216, USA",
        "location": {
            "lat": 39.7654855,
            "lng": -104.9936054
        },
        "city": "Denver",
        "place_id": "ChIJtxy58OR4bIcR9DsCk-2g8Ts",
        "name": "Park Avenue Wine & Spirits",
        "site": "http://www.parkaveliquor.com"
    }, {
        "formatted_address": "1886 S Pearl St, Denver, CO 80210, USA",
        "location": {
            "lat": 39.6823412,
            "lng": -104.9803255
        },
        "city": "Denver",
        "place_id": "ChIJuSEK50t-bIcRjFmY7o_9pgw",
        "name": "Pearl Wine Company",
        "site": "http://pearlwinecompany.com"
    }, {
        "formatted_address": "3360 Larimer St, Denver, CO 80205, USA",
        "location": {
            "lat": 39.7657432,
            "lng": -104.9756448
        },
        "city": "Denver",
        "place_id": "ChIJQc67Php5bIcR1q2lE77pbTc",
        "name": "Proof Wine & Spirits (Noble Swine, LLC)",
        "site": "http://www.proofwineandspirits.com"
    }, {
        "formatted_address": "3083 Brighton Blvd, Denver, CO 80216, USA",
        "location": {
            "lat": 39.7665965,
            "lng": -104.9845678
        },
        "city": "Denver",
        "place_id": "ChIJETpYcR15bIcREgkJ1pZbh_A",
        "name": "RiNo Liqour",
        "site": "http://rinoartdistrict.org"
    }, {
        "formatted_address": "2035 S Broadway, Denver, CO 80210, USA",
        "location": {
            "lat": 39.6796281,
            "lng": -104.9878777
        },
        "city": "Denver",
        "place_id": "ChIJm9iMBLV_bIcReALOh9bl34k",
        "name": "Sobo Liquors",
        "site": ""
    }, {
        "formatted_address": "1434 Blake St, Denver, CO 80202, USA",
        "location": {
            "lat": 39.748979,
            "lng": -105.000686
        },
        "city": "Denver",
        "place_id": "ChIJH-vJrMV4bIcR8UaisuywRTE",
        "name": "Society Sports & Spirits",
        "site": "http://societydenver.com"
    }, {
        "formatted_address": "415 S Cherokee St, Denver, CO 80223, USA",
        "location": {
            "lat": 39.709233,
            "lng": -104.992647
        },
        "city": "Denver",
        "place_id": "ChIJU99Jcht_bIcR4SQPWz9Xgqk",
        "name": "The White Whale Room",
        "site": "https://www.chasethewhitewhale.com/"
    }, {
        "formatted_address": "900 E 104th Ave, Denver, CO 80233, USA",
        "location": {
            "lat": 39.8836637,
            "lng": -104.9741258
        },
        "city": "Denver",
        "place_id": "ChIJUwHwvY12bIcRoRgFGDRdG28",
        "name": "Total Beverage-Thorton",
        "site": ""
    }, {
        "formatted_address": "1455 S Holly St, Denver, CO 80222, USA",
        "location": {
            "lat": 39.6903156,
            "lng": -104.9232698
        },
        "city": "Denver",
        "place_id": "ChIJh7SfkcN9bIcR_4fXBH5en4M",
        "name": "Virginia Village Liquor",
        "site": ""
    }],
    "total": 37,
    "formatted_address": "Denver, CO, USA",
    "location": {
        "lat": 39.7392358,
        "lng": -104.990251
    },
    "city": "denver"
}, {
    "list": [{
        "formatted_address": "25937 Conifer Rd, Conifer, CO 80433, USA",
        "location": {
            "lat": 39.5422914,
            "lng": -105.2963493
        },
        "city": "Conifer",
        "place_id": "ChIJvT1xOrF2a4cRgmfkCLYpHOY",
        "name": "Aspen Park Wine & Spirits",
        "site": "http://www.aspenparkwineandspirits.com/"
    }],
    "total": 1,
    "formatted_address": "Conifer, CO 80433, USA",
    "location": {
        "lat": 39.5202516,
        "lng": -105.3056996
    },
    "city": "conifer"
}, {
    "list": [{
        "formatted_address": "2770 Arapahoe Rd, Lafayette, CO 80026, USA",
        "location": {
            "lat": 40.0136364,
            "lng": -105.1325654
        },
        "city": "Lafayette",
        "place_id": "ChIJnQ9e2o7za4cRykRq6mkqjLM",
        "name": "Atlas Valley Purveyors",
        "site": "http://avpurveyors.com"
    }],
    "total": 1,
    "formatted_address": "Lafayette, CO, USA",
    "location": {
        "lat": 39.9935959,
        "lng": -105.0897058
    },
    "city": "lafayette"
}, {
    "list": [{
        "formatted_address": "9265 S Broadway, Highlands Ranch, CO 80129, USA",
        "location": {
            "lat": 39.5479954,
            "lng": -104.9946927
        },
        "city": "Highlands Ranch",
        "place_id": "ChIJXbIoBE-CbIcRuWVIRoIUDvE",
        "name": "Bacchus Wine & Spirits",
        "site": "http://www.bacchuswinesandspirits.com"
    }, {
        "formatted_address": "Timberline Rd, Highlands Ranch, CO, USA",
        "location": {
            "lat": 39.5456993,
            "lng": -104.9058793
        },
        "city": "Highlands Ranch",
        "place_id": "EidUaW1iZXJsaW5lIFJkLCBIaWdobGFuZHMgUmFuY2gsIENPLCBVU0EiSCpGChQKEgk3gEW1-YRshxEv_seUw5yi-RIUChIJC13RgvCCbIcRSduMa81j8REaGAoKDW3DkRcV-r93wRIKDfROkhcVRop5wQ",
        "name": "Highlands Wineseller",
        "site": "http://www.highlandswineseller.com"
    }],
    "total": 2,
    "formatted_address": "Highlands Ranch, CO, USA",
    "location": {
        "lat": 39.5480789,
        "lng": -104.9739333
    },
    "city": "highlands ranch"
}, {
    "list": [{
        "formatted_address": "1285 E 1st Ave #3765, Broomfield, CO 80020, USA",
        "location": {
            "lat": 39.9154412,
            "lng": -105.0550783
        },
        "city": "Broomfield",
        "place_id": "Ei8zNzY1LCAxMjg1IEUgMXN0IEF2ZSwgQnJvb21maWVsZCwgQ08gODAwMjAsIFVTQSIgGh4KFgoUChIJE1lRHWqKa4cRDsGH3GAVuhkSBDM3NjU",
        "name": "Beverage Werks",
        "site": "http://beveragewerks.net/"
    }],
    "total": 1,
    "formatted_address": "Broomfield, CO, USA",
    "location": {
        "lat": 39.9205411,
        "lng": -105.0866504
    },
    "city": "broomfield"
}, {
    "list": [{
        "formatted_address": "Conifer Rd, Aspen Park, CO 80433, USA",
        "location": {
            "lat": 39.5429845,
            "lng": -105.2928668
        },
        "city": "Aspen Park",
        "place_id": "ChIJnx_ffLZ2a4cRzbndsQ2-NoQ",
        "name": "Biggie Wine & Liquor",
        "site": ""
    }],
    "total": 1,
    "formatted_address": "Aspen Park, CO 80433, USA",
    "location": {
        "lat": 39.542748,
        "lng": -105.295922
    },
    "city": "aspen park"
}, {
    "list": [{
        "formatted_address": "35 Co Rd 804, Winter Park, CO 80482, USA",
        "location": {
            "lat": 39.9463258,
            "lng": -105.8101951
        },
        "city": "Winter Park",
        "place_id": "EigzNSBDbyBSZCA4MDQsIFdpbnRlciBQYXJrLCBDTyA4MDQ4MiwgVVNBIhoSGAoUChIJPSxbZ540aocR0gYtW5zbFGUQIw",
        "name": "Bottle Pass Liquors",
        "site": "http://bottlepassliquors.com"
    }, {
        "formatted_address": "76827 US-40, Winter Park, CO 80482, USA",
        "location": {
            "lat": 39.9413845,
            "lng": -105.8052949
        },
        "city": "Winter Park",
        "place_id": "ChIJpVrtgKI0aocRfePg6gP-mGw",
        "name": "Rocky Mountain Moonshine Liquors",
        "site": ""
    }, {
        "formatted_address": "78911 US-40, Winter Park, CO 80482, USA",
        "location": {
            "lat": 39.9182309,
            "lng": -105.784131
        },
        "city": "Winter Park",
        "place_id": "ChIJ2_jiEtM0aocRGdsRW6wAa-Y",
        "name": "Winter Park Wine and Spirits",
        "site": ""
    }],
    "total": 3,
    "formatted_address": "Winter Park, CO 80482, USA",
    "location": {
        "lat": 39.8916537,
        "lng": -105.7630624
    },
    "city": "winter park"
}, {
    "list": [{
        "formatted_address": "3325 28th St, Boulder, CO 80301, USA",
        "location": {
            "lat": 40.0353347,
            "lng": -105.260258
        },
        "city": "Boulder",
        "place_id": "ChIJZbsgnGTua4cR0q-vsRjax9s",
        "name": "Boulder Wine and Spirits",
        "site": "http://boulderwineandspirits.net"
    }, {
        "formatted_address": "1955 28th St, Boulder, CO 80301, USA",
        "location": {
            "lat": 40.0207251,
            "lng": -105.2599837
        },
        "city": "Boulder",
        "place_id": "ChIJA_ithtbta4cRNGAgcA3SPXw",
        "name": "Hazel's Beverage World",
        "site": "http://www.hazelsboulder.com"
    }],
    "total": 2,
    "formatted_address": "Boulder, CO, USA",
    "location": {
        "lat": 40.0149856,
        "lng": -105.2705456
    },
    "city": "boulder"
}, {
    "list": [{
        "formatted_address": "640 CO-125, Granby, CO 80446, USA",
        "location": {
            "lat": 40.2282249,
            "lng": -106.0568959
        },
        "city": "Granby",
        "place_id": "EiE2NDAgQ08tMTI1LCBHcmFuYnksIENPIDgwNDQ2LCBVU0EiGxIZChQKEgkH4mEGVYlphxG1nGCsLj6coRCABQ",
        "name": "C Lazy U Ranch",
        "site": "http://www.clazyu.com"
    }, {
        "formatted_address": "88 E Agate Ave, Granby, CO 80446, USA",
        "location": {
            "lat": 40.0853754,
            "lng": -105.9410029
        },
        "city": "Granby",
        "place_id": "ChIJccvgAzQvaocRULF-FW0tmJs",
        "name": "R and J Liquors",
        "site": ""
    }],
    "total": 2,
    "formatted_address": "Granby, CO 80446, USA",
    "location": {
        "lat": 40.086097,
        "lng": -105.9394597
    },
    "city": "granby"
}, {
    "list": [{
        "formatted_address": "15260 E Iliff Ave, Aurora, CO 80014, USA",
        "location": {
            "lat": 39.6734722,
            "lng": -104.8106032
        },
        "city": "Aurora",
        "place_id": "ChIJTXnz9iWIbIcRebw1FUGeRd4",
        "name": "Chambers Wine and Liquors",
        "site": "http://www.chamberswineandliquor.com"
    }, {
        "formatted_address": "15405 E Briarwood Cir, Aurora, CO 80016, USA",
        "location": {
            "lat": 39.5943482,
            "lng": -104.8092126
        },
        "city": "Aurora",
        "place_id": "ChIJtbAzEy6PbIcR1jpu2e8ZKvA",
        "name": "Cornerstar Wine & Liquor",
        "site": "http://cornerstarwineandliquor.com"
    }, {
        "formatted_address": "6140 S Gun Club Rd, Aurora, CO 80016, USA",
        "location": {
            "lat": 39.6038497,
            "lng": -104.7155695
        },
        "city": "Aurora",
        "place_id": "Eik2MTQwIFMgR3VuIENsdWIgUmQsIEF1cm9yYSwgQ08gODAwMTYsIFVTQSIbEhkKFAoSCTlaNYF6jGyHEROnv5Z425oAEPwv",
        "name": "Great Vines Liquor",
        "site": "http://www.greatvinesliquors.net"
    }],
    "total": 3,
    "formatted_address": "Aurora, CO, USA",
    "location": {
        "lat": 39.7294319,
        "lng": -104.8319195
    },
    "city": "aurora"
}, {
    "list": [{
        "formatted_address": "19 E Kiowa St, Colorado Springs, CO 80903, USA",
        "location": {
            "lat": 38.8351624,
            "lng": -104.8242179
        },
        "city": "Colorado Springs",
        "place_id": "ChIJS3NIzSJFE4cRqhI74glO7Dg",
        "name": "Chiba Bar",
        "site": "http://chiba-bar.com"
    }, {
        "formatted_address": "330 W Uintah St, Colorado Springs, CO 80905, USA",
        "location": {
            "lat": 38.8513648,
            "lng": -104.8305503
        },
        "city": "Colorado Springs",
        "place_id": "ChIJNe0RTERFE4cRn0q02t-gZnQ",
        "name": "Coaltrain Fine Wine and Spirits",
        "site": "http://coaltrainwine.com"
    }, {
        "formatted_address": "103 Wahsatch Avenue, Colorado Springs, CO 80903, USA",
        "location": {
            "lat": 38.8319354,
            "lng": -104.8176776
        },
        "city": "Colorado Springs",
        "place_id": "EjQxMDMgV2Foc2F0Y2ggQXZlbnVlLCBDb2xvcmFkbyBTcHJpbmdzLCBDTyA4MDkwMywgVVNBIhoSGAoUChIJN8U5OhlFE4cRDeyzeeEr3f4QZw",
        "name": "Downtown Fine Spirits & Wines",
        "site": "http://dtnfspiritsandwines.com"
    }, {
        "formatted_address": "2906 N Powers Blvd, Colorado Springs, CO 80922, USA",
        "location": {
            "lat": 38.87566,
            "lng": -104.7222662
        },
        "city": "Colorado Springs",
        "place_id": "ChIJswkjgSZGE4cRKt_Sz7j24LE",
        "name": "J & K Liquor",
        "site": "http://jkliquor.com"
    }, {
        "formatted_address": "123 E Pikes Peak Ave, Colorado Springs, CO 80947, USA",
        "location": {
            "lat": 38.8336622,
            "lng": -104.8223881
        },
        "city": "Colorado Springs",
        "place_id": "ChIJyQuynCJFE4cRdoYjE-gjaDc",
        "name": "Springs Orleans",
        "site": "http://www.springsorleans.com"
    }, {
        "formatted_address": "3630 Austin Bluffs Pkwy, Colorado Springs, CO 80918, USA",
        "location": {
            "lat": 38.8932403,
            "lng": -104.7595686
        },
        "city": "Colorado Springs",
        "place_id": "ChIJXS6Ix0lPE4cR_QkNXQChNFk",
        "name": "Veterans Wine & Liquor",
        "site": ""
    }],
    "total": 6,
    "formatted_address": "Colorado Springs, CO, USA",
    "location": {
        "lat": 38.8338816,
        "lng": -104.8213634
    },
    "city": "colorado springs"
}, {
    "list": [{
        "formatted_address": "620 2nd St, Crested Butte, CO 81224, USA",
        "location": {
            "lat": 38.8670944,
            "lng": -106.9872146
        },
        "city": "Crested Butte",
        "place_id": "ChIJ26vO7T5yQIcR3Ct0tRrRbXY",
        "name": "Crested Butte Nordic",
        "site": ""
    }],
    "total": 1,
    "formatted_address": "Crested Butte, CO 81224, USA",
    "location": {
        "lat": 38.8697146,
        "lng": -106.9878231
    },
    "city": "crested butte"
}, {
    "list": [{
        "formatted_address": "5555 Boatworks Dr, Littleton, CO 80126, USA",
        "location": {
            "lat": 39.565506,
            "lng": -104.9237689
        },
        "city": "Littleton",
        "place_id": "ChIJAVGkJROEbIcRDsoprK1DCT4",
        "name": "Davidson's Liquor Colorado",
        "site": "https://www.davidsonsliquors.com/"
    }, {
        "formatted_address": "7403 W Chatfield Ave, Littleton, CO 80128, USA",
        "location": {
            "lat": 39.5673171,
            "lng": -105.0805386
        },
        "city": "Littleton",
        "place_id": "ChIJA7PvjIB-a4cR_v3Rqm_vSjQ",
        "name": "Southside Pizzeria",
        "site": "http://www.eatsouthside.com"
    }],
    "total": 2,
    "formatted_address": "Littleton, CO, USA",
    "location": {
        "lat": 39.613321,
        "lng": -105.0166498
    },
    "city": "littleton"
}, {
    "list": [{
        "formatted_address": "3530 County Rd 83, Tabernash, CO 80478, USA",
        "location": {
            "lat": 39.9663313,
            "lng": -105.7842685
        },
        "city": "Tabernash",
        "place_id": "ChIJDTx7REszaocRe77lVPcKB6A",
        "name": "Devil's Thumb Ranch",
        "site": "http://devilsthumbranch.com"
    }],
    "total": 1,
    "formatted_address": "Tabernash, CO 80478, USA",
    "location": {
        "lat": 39.9935977,
        "lng": -105.8430661
    },
    "city": "tabernash"
}, {
    "list": [{
        "formatted_address": "110 Glenmoor Dr, Englewood, CO 80113, USA",
        "location": {
            "lat": 39.6250883,
            "lng": -104.9483004
        },
        "city": "Englewood",
        "place_id": "ChIJVURjsdaAbIcRE-jqCwm4K8M",
        "name": "Glenmoor Country Club",
        "site": "http://glenmoorcc.org"
    }, {
        "formatted_address": "3475 S University Blvd, Englewood, CO 80113, USA",
        "location": {
            "lat": 39.654445,
            "lng": -104.9607438
        },
        "city": "Englewood",
        "place_id": "ChIJA5zcQaKAbIcReyI1eR72BQs",
        "name": "Kent Cellars",
        "site": "https://kent-cellars.business.site/"
    }],
    "total": 2,
    "formatted_address": "Englewood, CO, USA",
    "location": {
        "lat": 39.6477653,
        "lng": -104.9877597
    },
    "city": "englewood"
}, {
    "list": [{
        "formatted_address": "15500 US-34, Grand Lake, CO 80447, USA",
        "location": {
            "lat": 40.2570039,
            "lng": -105.8267164
        },
        "city": "Grand Lake",
        "place_id": "ChIJ54WMfniBaYcRLt7Bc83BXmQ",
        "name": "Grand Lake Lodge",
        "site": "http://grandlakelodge.com"
    }, {
        "formatted_address": "904 Grand Ave, Grand Lake, CO 80447, USA",
        "location": {
            "lat": 40.25172209999999,
            "lng": -105.8208937
        },
        "city": "Grand Lake",
        "place_id": "ChIJHevj15uBaYcRLYW3RDdAY80",
        "name": "Grand Lake Wine & Spirits",
        "site": ""
    }],
    "total": 2,
    "formatted_address": "Grand Lake, CO 80447, USA",
    "location": {
        "lat": 40.25220729999999,
        "lng": -105.8230671
    },
    "city": "grand lake"
}, {
    "list": [{
        "formatted_address": "7475 E Arapahoe Rd, Centennial, CO 80112, USA",
        "location": {
            "lat": 39.596468,
            "lng": -104.9017506
        },
        "city": "Centennial",
        "place_id": "ChIJ5SEMEoWGbIcRh-CykOYuXHQ",
        "name": "Heritage Wine and Liquor",
        "site": "http://www.heritagewineandliquor.com"
    }, {
        "formatted_address": "8200 S Quebec St, Centennial, CO 80112, USA",
        "location": {
            "lat": 39.5673818,
            "lng": -104.9025678
        },
        "city": "Centennial",
        "place_id": "ChIJf5tCHkiEbIcRmbfxl1lfxG4",
        "name": "Willow Creek Wine & Spirits (Mojo Beau Co)",
        "site": ""
    }],
    "total": 2,
    "formatted_address": "Centennial, CO, USA",
    "location": {
        "lat": 39.5807452,
        "lng": -104.8771726
    },
    "city": "centennial"
}, {
    "list": [{
        "formatted_address": "E Smoky Hill Rd, Colorado, USA",
        "location": {
            "lat": 39.60918360000001,
            "lng": -104.7488575
        },
        "city": "",
        "place_id": "ChIJf1h4bh2MbIcRG6Pz7GNg1is",
        "name": "Serenity Ridge Liquors",
        "site": ""
    }, {
        "formatted_address": "Janitell Rd, Southeast Colorado Springs, CO 80906, USA",
        "location": {
            "lat": 38.7944135,
            "lng": -104.7898732
        },
        "city": "",
        "place_id": "ChIJwwqOwntEE4cRacSE2jtXLx0",
        "name": "Total Wine & Liquor",
        "site": "http://totalwineandliquor.com"
    }],
    "total": 2
}, {
    "list": [{
        "formatted_address": "2939 S Parker Rd, Parker, CO 80134, USA",
        "location": {
            "lat": 39.4351887,
            "lng": -104.7603314
        },
        "city": "Parker",
        "place_id": "EicyOTM5IFMgUGFya2VyIFJkLCBQYXJrZXIsIENPIDgwMTM0LCBVU0EiGxIZChQKEgnffkkMr5ZshxGLRlfocdvtxxD7Fg",
        "name": "Stroh Ranch Liquors",
        "site": "http://strohranchliquor.com"
    }],
    "total": 1,
    "formatted_address": "Parker, CO, USA",
    "location": {
        "lat": 39.5186002,
        "lng": -104.7613633
    },
    "city": "parker"
}, {
    "list": [{
        "formatted_address": "1401 Miner St, Idaho Springs, CO 80452, USA",
        "location": {
            "lat": 39.7416267,
            "lng": -105.5177181
        },
        "city": "Idaho Springs",
        "place_id": "ChIJQ8Q4SbGka4cRcKKKoC1hvbo",
        "name": "Tommyknocker Brewery",
        "site": "http://tommyknocker.com"
    }],
    "total": 1,
    "formatted_address": "Idaho Springs, CO, USA",
    "location": {
        "lat": 39.7424881,
        "lng": -105.5136081
    },
    "city": "idaho springs"
}, {
    "list": [{
        "formatted_address": "8310 E Belleview Ave, Greenwood Village, CO 80111, USA",
        "location": {
            "lat": 39.623743,
            "lng": -104.890957
        },
        "city": "Greenwood Village",
        "place_id": "ChIJT1yFE1aGbIcRcl5LjaIgYYg",
        "name": "Ya Ya's Euro Bistro (PB&J Restaurants, Inc.)",
        "site": "http://www.yayasdenver.com"
    }],
    "total": 1,
    "formatted_address": "Greenwood Village, CO, USA",
    "location": {
        "lat": 39.6172101,
        "lng": -104.9508141
    },
    "city": "greenwood village"
}]